GPS_TIME (ms),LONG (deg),LAT (deg),ELEV (m),SPEED (m/s),ACCEL_X (m/s^2),ACCEL_Y (m/s^2),ACCEL_Z (m/s^2),SYSTEM_TIME (ms),RPM,THROTTLE (%),SATELLITE_COUNT,GPS_ACCURACY (m),STEERING (deg),BRAKES (kPa),ANALOG_1,ANALOG_2,PITCH_RATE (rad/s),ROLL_RATE (rad/s),YAW_RATE (rad/s),PITCH (rad),ROLL (rad),ANALOG_3,ANALOG_4,GPS_QUALITY,DEVICE_TEMPERATURE (°C),DEVICE_BATTERY_TEMPERATURE (°C),COOLANT_TEMPERATURE (°C),OIL_TEMPERATURE (°C),OIL_PRESSURE (kPa),FUEL_PRESSURE (kPa),INTAKE_AIR_TEMPERATURE (°C),MANIFOLD_ABSOLUTE_PRESSURE (kPa),GNSS_POSITION_VALIDITY,RECORDED_SAMPLE_COUNT,MATH_GRID_X,MATH_GRID_Y,MATH_GRID_Z,MATH_GRID_X_DELTA,MATH_GRID_Y_DELTA,MATH_GRID_X_SPEED,MATH_GRID_Y_SPEED,MATH_GRID_X_ACCEL,MATH_GRID_Y_ACCEL,MATH_DISTANCE_FROM_PREV,MATH_ELAPSED_DISTANCE,MATH_CALC_SPEED,MATH_GNSS_SPEED_LAG,MATH_RADIUS,MATH_RADIUS_DIFFERENTIAL,MATH_TURN_NUMBER,MATH_TURN_NUMBER_BRAKE,MATH_TURN_NUMBER_ENTRY,MATH_TURN_NUMBER_EXIT,MATH_DETECTED_RADIUS,MATH_TURN_CENTER_X,MATH_TURN_CENTER_Y,MATH_HEADING,MATH_ACCEL_2D_SUM,MATH_THROTTLE_DIFFERENTIAL,MATH_ELAPSED_TIME,MATH_DELTA_TIME,MATH_DELTA_TIME_DIFFERENTIAL,MATH_DELTA_DISTANCE,MATH_DELTA_DISTANCE_DIFFERENTIAL,MATH_SAMPLE_COUNT,MATH_SAMPLE_PERIOD,MATH_CALC_ACCEL_X,MATH_CALC_ACCEL_Y,MATH_CALC_ACCEL_2D_SUM,MATH_ACCEL_X_QUALITY,MATH_ACCEL_Y_QUALITY,MATH_FILTER_PITCH,MATH_FILTER_ROLL,MATH_ELAPSED_DISTANCE_NORMALIZED,MATH_LAP_NUMBER,MATH_LAP_ELAPSED_TIME,MATH_SECTOR_NUMBER,MATH_SECTOR_ELAPSED_TIME,MATH_USER_DEFINED_1,MATH_USER_DEFINED_2,MATH_USER_DEFINED_3,MATH_USER_DEFINED_4
66129700.0,-81.74257,28.752318333333335,24.1,0.11317777768,0.6047830581665039,4.985339641571045,9.327789306640625,1678645329194.0,3212.0,21.0,9.0,1.0,0.0,0.0,0.0,0.0,0.0,0.0,0.0,0.0,0.0,0.0,0.0,2.0,0.0,43.0,0.0,0.0,0.0,0.0,0.0,0.0,1.0,1.0,802820.7283558869,-5531893.16636915,31.9,0.0,0.0,0.0,0.0,3.1638969040614935,0.5912956342359276,0.0,0.0,0.4622358635084539,0.34905808582845393,0.0,0.0,0.0,0.0,0.0,0.0,0.0,0.0,0.0,84.6652136300018,5.02188947401921,0.0,0.0,0.0,-97.78768802406275,0.0,0.0,1.0,0.0,0.0036249769397708655,2.68019084962284,2.6801933010250987,0.0,0.0,0.0,0.0,0.0,8.0,0.0,1.0,0.0,0.0,0.0,0.0,0.0
66129800.0,-81.74256833333334,28.752318333333335,24.1,0.36011111079999997,0.3973042368888855,4.861356735229492,9.59925651550293,1678645329293.0,3212.0,21.0,9.0,1.0,0.0,0.0,0.0,0.0,0.0,0.0,0.0,0.0,0.0,0.0,0.0,2.0,0.0,43.0,0.0,0.0,0.0,0.0,0.0,0.0,1.0,2.0,802820.8754044885,-5531893.163580182,31.90943396226415,0.16247583564836532,0.0,1.6247583564836532,0.0,3.5344204230268437,0.6518792114109436,0.1470750474799626,0.1470750474799626,1.470750474799626,1.1106393639996262,-4.209916959500595,-0.04209916959500595,0.0,0.0,0.0,0.0,0.0,802818.0475045828,-5531890.99911809,84.6652136300018,4.87756496254135,0.0,100.0,-57.15540904108883,-89.49240223262551,0.0027890937651264837,0.0,2.0,100.0,0.02774643901038025,3.0451356167389263,3.0452620230794127,0.36955779787850523,1.8162211184905659,0.0,0.0,0.15229651555965373,8.0,100.0,2.0,100.0,0.0,0.0,0.0,0.0
66129900.0,-81.742565,28.75232,24.1,1.39928888768,1.1375954151153564,4.591169357299805,9.796120643615723,1678645329384.0,2882.0,30.0,9.0,1.0,0.0,0.0,0.0,0.0,0.0,0.0,0.0,0.0,0.0,0.0,0.0,2.0,0.0,43.0,0.0,0.0,0.0,0.0,0.0,0.0,1.0,3.0,802821.1849289283,-5531893.064422142,31.9188679245283,0.4874275093898177,0.09636907186359167,3.249516737414524,0.9636907186359167,3.932988147490151,0.6882293524306441,0.32501953132501116,0.47209457880497374,3.250195313250112,1.8509064255701118,27.63075336125838,0.3184067032075898,0.0,0.0,0.0,0.0,0.0,802819.163280804,-5531894.761459509,76.64410115044785,4.7300062786322155,90.0,200.0,-105.34941150145625,-77.12198115955009,0.10300983398535057,0.0,3.0,100.0,0.041473301887795744,3.45100009912122,3.45124929828376,1.0961221132275607,1.1401692581785845,0.0,0.0,0.482537514964356,8.0,200.0,2.0,200.0,0.0,0.0,0.0,0.0
66130000.0,-81.74256333333334,28.75232,24.1,2.0063333316,1.638719081878662,5.870710372924805,9.515975952148438,1678645329472.0,2882.0,30.0,10.0,0.8700000047683716,0.0,0.0,0.0,0.0,0.0,0.0,0.0,0.0,0.0,0.0,0.0,2.0,0.0,43.0,0.0,0.0,0.0,0.0,0.0,0.0,1.0,4.0,802821.4424610998,-5531893.009742134,31.92830188679245,0.7603869149461389,0.148260110989213,2.7295940555632114,0.5189103912562132,4.161166048393473,0.700346060491789,0.26327309510757957,0.7353676739125533,2.6327309510757955,0.6263976194757954,94.00587974682237,0.6637512638556399,0.0,0.0,0.0,0.0,0.0,121529517.99554253,-640583504.6417325,79.23620808488874,6.0951325262113984,0.0,300.0,-103.28356954290894,-60.872528755042346,0.15085857146060283,0.0,4.0,100.0,0.09133777987129398,3.701260721404616,3.7023875429031516,1.5473813020073681,2.1694496515201886,0.0,0.0,0.7510320781516266,8.0,300.0,2.0,300.0,0.0,0.0,0.0,0.0
66130100.0,-81.74255833333333,28.75232,24.1,2.5156333311599997,0.5368797779083252,5.014371395111084,8.839869499206543,1678645329565.0,2882.0,30.0,10.0,0.8700000047683716,0.0,0.0,0.0,0.0,0.0,0.0,0.0,0.0,0.0,0.0,0.0,2.0,0.0,43.0,0.0,0.0,0.0,0.0,0.0,0.0,1.0,5.0,802821.7389874723,-5531892.947649121,31.9377358490566,1.072340521379374,0.2075641555711627,3.119536064332351,0.5930404458194971,4.359812545106784,0.6467901931691401,0.3029578053249728,1.038325479237526,3.029578053249728,0.5139447220897284,61.844416755051846,-0.3216146299177053,0.0,0.0,0.0,0.0,0.0,802821.152468611,-5531903.631078666,79.9846487069878,5.043030872802106,0.0,400.0,-103.46423022017638,-40.706588925859606,0.19876797630840545,0.0,5.0,100.0,0.1206113202222107,3.930763293566065,3.9326132737166115,0.4162684576861145,1.083608101545019,0.0,0.0,1.0592113515562904,8.0,400.0,2.0,400.0,0.0,0.0,0.0,0.0
66130200.0,-81.74255666666667,28.75232,24.1,2.88603333084,0.6026687026023865,6.584049224853516,9.140922546386719,1678645329651.0,2735.0,27.0,10.0,0.8700000047683716,0.0,0.0,0.0,0.0,0.0,0.0,0.0,0.0,0.0,0.0,0.0,2.0,0.0,43.0,0.0,0.0,0.0,0.0,0.0,0.0,1.0,6.0,802822.0420128781,-5531892.892969114,31.94716981132075,1.390793161233887,0.259455194696784,3.184526398545131,0.5189103912562132,4.459666931285027,0.5920226405605786,0.3079193073099748,1.346244786547501,3.079193073099748,0.19315974225974797,86.01881513067893,0.24174398375627085,0.0,0.0,0.0,0.0,0.0,802809.9072576396,-5531834.619796955,80.58513139469324,6.611574227095286,-30.0,500.0,-90.90001947754149,-17.12169003934264,0.23469715231334154,0.0,6.0,100.0,0.15115868577000063,4.078676253183649,4.081476317041166,0.45151001683238584,2.5053729716698667,0.0,0.0,1.3723521269459564,8.0,500.0,2.0,500.0,0.0,0.0,0.0,0.0
66130300.0,-81.74255333333333,28.752321666666667,24.1,3.3953333303999997,0.6836377382278442,6.700270175933838,9.434358596801758,1678645329802.0,2735.0,27.0,10.0,0.8700000047683716,0.0,0.0,0.0,0.0,0.0,0.0,0.0,0.0,0.0,0.0,0.0,2.0,0.0,43.0,0.0,0.0,0.0,0.0,0.0,0.0,1.0,7.0,802822.3775334512,-5531892.830876102,31.956603773584906,1.7417409681947902,0.31875923834741116,3.509478069609031,0.5930404365062714,4.450106407069987,0.49218092589898227,0.3412178147479178,1.6874626012954188,3.412178147479178,0.016844817079178398,54.73691181325243,-0.31281903317426496,0.0,0.0,0.0,0.0,0.0,802823.3271759801,-5531914.035813487,80.85633470296642,6.73505612357,0.0,600.0,-76.45312179933137,9.254675483274376,0.27304462177597183,0.0,7.0,100.0,0.17243622905729922,4.128426878563887,4.132026469511087,0.5112015091705451,2.571843297369951,0.0,0.0,1.7187914097735655,8.0,600.0,2.0,600.0,0.0,0.0,0.0,0.0
66130400.0,-81.74254833333333,28.752321666666667,24.1,3.83775555224,0.9249006509780884,5.837424278259277,9.038480758666992,1678645329837.0,2735.0,27.0,10.0,0.8700000047683716,0.0,0.0,0.0,0.0,0.0,0.0,0.0,0.0,0.0,0.0,0.0,2.0,0.0,43.0,0.0,0.0,0.0,0.0,0.0,0.0,1.0,8.0,802822.7520482251,-5531892.768783088,31.966037735849056,2.1316829761490226,0.37806328386068344,3.899420079542324,0.5930404551327229,4.284178156341146,0.45074176267958554,0.3796272623040598,2.0670898635994788,3.796272623040598,-0.04148292919940211,87.4537699464218,0.3271685813316937,0.0,0.0,0.0,0.0,0.0,802809.0833057456,-5531820.378065314,81.19545576733515,5.910242247031042,0.0,700.0,-64.04669458741478,37.68456217241895,0.3054009655449085,0.0,8.0,100.0,0.19027244701576052,4.047953250621432,4.052422623975686,0.7346282039623279,1.7894710276378456,0.0,0.0,2.1036401401573164,8.0,700.0,2.0,700.0,0.0,0.0,0.0,0.0
66130500.0,-81.742545,28.752321666666667,24.1,4.27503332964,1.4648741483688354,3.786787986755371,9.36804485321045,1678645330019.0,2735.0,27.0,10.0,0.8700000047683716,0.0,0.0,0.0,0.0,0.0,0.0,0.0,0.0,0.0,0.0,0.0,2.0,0.0,43.0,0.0,0.0,0.0,0.0,0.0,0.0,1.0,9.0,802823.1590581661,-5531892.699277069,31.975471698113207,2.5541201510932297,0.44478033389896154,4.224371749442071,0.667170500382781,4.044102714880335,0.3569583854558578,0.41290214170422207,2.479992005303701,4.129021417042221,-0.14601191259777924,73.82643400149423,-0.13627335944927566,0.0,0.0,0.0,0.0,0.0,802793.9795784254,-5531724.744701778,80.9526059999668,4.060248702628217,0.0,800.0,-51.08590771599222,67.36521780907118,0.3430055826590309,0.0,9.0,100.0,0.19944095730862665,3.902768201195429,3.9078608378132387,1.2654331910602088,-0.11598021444005813,0.0,0.0,2.5217637499412295,8.0,800.0,2.0,800.0,0.0,0.0,0.0,0.0
66130600.0,-81.74254,28.752323333333333,24.1,4.9129444402,1.4648741483688354,3.786787986755371,9.36804485321045,1678645330031.0,2735.0,27.0,10.0,0.8700000047683716,0.0,0.0,0.0,0.0,0.0,0.0,0.0,0.0,0.0,0.0,0.0,2.0,0.0,43.0,0.0,0.0,0.0,0.0,0.0,0.0,1.0,10.0,802823.6050623078,-5531892.622358046,31.984905660377358,3.0155515267979354,0.518910389393568,4.614313757047057,0.741300554946065,3.6606193728298653,0.31430755603976934,0.45258836778220474,2.9325803730859055,4.525883677822048,-0.3870607623779527,91.4079761231998,0.17581542121705568,0.0,0.0,0.0,0.0,0.0,802826.2670223919,-5531925.721749321,81.25828190714748,4.060248702628217,0.0,900.0,-38.35580386597417,98.31140236801622,0.3879653017490895,0.0,10.0,100.0,0.20380586905372922,3.640312364822186,3.646013020511315,1.2610682793151062,0.14647562193318509,0.0,0.0,2.9795735858031254,8.0,900.0,2.0,900.0,0.0,0.0,0.0,0.0
66130700.0,-81.742535,28.752323333333333,24.0,5.2936333287599995,0.5587636828422546,4.854214191436768,9.051722526550293,1678645330208.0,2234.0,53.0,10.0,0.8700000047683716,0.0,0.0,0.0,0.0,0.0,0.0,0.0,0.0,0.0,0.0,0.0,2.0,0.0,43.0,0.0,0.0,0.0,0.0,0.0,0.0,1.0,11.0,802824.0965596841,-5531892.545439021,31.894339622641507,3.522476137150079,0.5930404458194971,5.0692461035214365,0.7413005642592907,3.12310532545266,0.2120424941883597,0.49747985621357044,3.430060229299476,4.974798562135704,-0.31883476662429544,123.5557502616228,0.32147774138423,0.0,0.0,0.0,0.0,0.0,802828.746108477,-5531942.674518661,81.9630742992644,4.886267723898226,260.0,1000.0,-26.942617286000086,130.3706372814731,0.43239773000876724,0.0,11.0,100.0,0.19717926298339025,3.2325835805509247,3.2385917104504096,0.36158441985886436,1.621630610885843,0.0,0.0,3.482274910096387,8.0,1000.0,2.0,1000.0,0.0,0.0,0.0,0.0
66130800.0,-81.74252833333334,28.752325,24.0,5.51484443968,0.6359864473342896,4.807356357574463,9.74645709991455,1678645330298.0,2234.0,53.0,10.0,0.8700000047683716,0.0,0.0,0.0,0.0,0.0,0.0,0.0,0.0,0.0,0.0,0.0,2.0,0.0,43.0,0.0,0.0,0.0,0.0,0.0,0.0,1.0,12.0,802824.6270512609,-5531892.468519997,31.903773584905657,4.068394947913475,0.6671705013141036,5.459188107633963,0.741300554946065,2.4209377665236183,0.15363993510438304,0.536039037058715,3.966099266358191,5.36039037058715,-0.15445406909284998,200.5233018586377,0.7696755159701489,0.0,0.0,0.0,0.0,0.0,802834.2692611159,-5531983.348883465,82.43692056958969,4.849242611986381,0.0,1100.0,-16.393698503846963,162.96041176134358,0.47597813797665706,0.0,12.0,100.0,0.17856852337687387,2.6865021347323315,2.6924302103234488,0.45741792395741565,2.1208542228421314,0.0,0.0,4.023535415234793,8.0,1100.0,2.0,1100.0,0.0,0.0,0.0,0.0
66130900.0,-81.74252333333334,28.752325,24.0,5.658888884,0.6582916975021362,4.0714545249938965,8.837204933166504,1678645330391.0,2234.0,53.0,10.0,0.8700000047683716,0.0,0.0,0.0,0.0,0.0,0.0,0.0,0.0,0.0,0.0,0.0,2.0,0.0,43.0,0.0,0.0,0.0,0.0,0.0,0.0,1.0,13.0,802825.1835389719,-5531892.391600973,31.913207547169808,4.64030989294406,0.7413005568087101,5.719149450305849,0.741300554946065,3.0094412800281436,-0.013086045585297315,0.5617785228735186,4.5278777892317095,5.617785228735186,-0.04110365526481363,95.70031672509198,-1.048229851335457,0.0,0.0,0.0,0.0,0.0,802831.7270014272,-5531963.735296235,82.84042098366837,4.124329025198343,0.0,1200.0,-5.698641859053851,144.34167867233938,0.5135536265218547,0.0,13.0,100.0,0.09236598349026082,2.970022478757911,2.9714583960125385,0.5659257140118754,1.1014320462359857,0.0,0.0,4.590535406188003,8.0,1200.0,2.0,1200.0,0.0,0.0,0.0,0.0
66131000.0,-81.74251666666666,28.752325,24.0,6.04986666144,0.020697519183158875,4.0685224533081055,9.14629077911377,1678645330476.0,2834.0,99.0,10.0,0.8700000047683716,0.0,0.0,0.0,0.0,0.0,0.0,0.0,0.0,0.0,0.0,0.0,2.0,0.0,43.0,0.0,0.0,0.0,0.0,0.0,0.0,1.0,14.0,802825.7790208836,-5531892.314681948,31.92264150943396,5.2512190386187285,0.8154306132346392,6.1090914567466825,0.7413005642592907,4.022857098011761,0.7078584286330398,0.6004292160686736,5.128307005300383,6.004292160686736,-0.04557450075326397,-200.79759620455457,-2.964979129296465,0.0,0.0,0.0,0.0,0.0,802808.5790430391,-5531772.971924876,82.93316958524392,4.068575099512426,460.0,1300.0,4.957652692222609,112.39176941691393,0.5448159181575726,0.0,14.0,100.0,0.06362554150681163,4.095126364893893,4.095620606694559,-0.042928022323652754,-0.0266039115857879,0.0,0.0,5.196186090336368,8.0,1300.0,2.0,1300.0,0.0,0.0,0.0,0.0
66131100.0,-81.74251,28.752326666666665,24.0,6.4819999944,0.6876188516616821,5.210827827453613,9.951120376586914,1678645330594.0,2834.0,99.0,10.0,0.8700000047683716,0.0,0.0,0.0,0.0,0.0,0.0,0.0,0.0,0.0,0.0,0.0,2.0,0.0,43.0,0.0,0.0,0.0,0.0,0.0,0.0,1.0,15.0,802826.4069979624,-5531892.230349919,31.93207547169811,5.894623351399787,0.896973674185574,6.4340431278105825,0.8154306095093489,3.6049558604732836,0.489757567809742,0.6336143169511904,5.761921322251573,6.336143169511904,-0.14585682488809582,-1497.6696024552202,-12.968720062506657,0.0,0.0,0.0,0.0,0.0,802806.0965277107,-5531753.383978947,82.64309292088166,5.256000982926609,0.0,1400.0,14.861203955509154,105.2227819047349,0.5771716196093577,0.0,15.0,100.0,0.002921075585123875,3.6276735211644424,3.6276746972186187,0.6846977760765582,1.5831543062891709,0.0,0.0,5.835021875367248,8.0,1400.0,2.0,1400.0,0.0,0.0,0.0,0.0
66131200.0,-81.74250333333333,28.752326666666665,24.0,6.88326666072,0.10986310243606567,4.428529262542725,10.255563735961914,1678645330657.0,2834.0,99.0,10.0,0.8700000047683716,0.0,0.0,0.0,0.0,0.0,0.0,0.0,0.0,0.0,0.0,0.0,2.0,0.0,43.0,0.0,0.0,0.0,0.0,0.0,0.0,1.0,16.0,802827.0674702087,-5531892.138604883,31.94150943396226,6.570522831752896,0.9859297415241599,6.758994803531095,0.8895606733858585,3.691425511298988,0.6722353020060022,0.666813871917655,6.428735194169228,6.668138719176549,-0.21512794154345105,-293.21803930469935,12.04451563150521,0.0,0.0,0.0,0.0,0.0,802817.9569796126,-5531843.501196547,82.09404601003018,4.429891796700466,0.0,1500.0,23.86066906354108,91.95129947169704,0.6104424039666277,0.0,16.0,100.0,-0.0641288712355145,3.7421161894632236,3.742665639296235,0.04573423120055117,0.6864130730795011,0.0,0.0,6.507057215364594,8.0,1500.0,2.0,1500.0,0.0,0.0,0.0,0.0
66131300.0,-81.74249666666667,28.752328333333335,24.0,7.11476666052,-0.27349984645843506,3.239783525466919,10.046565055847168,1678645330738.0,2834.0,99.0,10.0,0.8700000047683716,0.0,0.0,0.0,0.0,0.0,0.0,0.0,0.0,0.0,0.0,0.0,2.0,0.0,43.0,0.0,0.0,0.0,0.0,0.0,0.0,1.0,17.0,802827.7604376222,-5531892.032033837,31.950943396226414,7.2789174790959805,1.08971181884408,7.083946473430842,1.0378207731992006,3.5210356847553586,0.7182787982342037,0.7011142730671678,7.1298494672363955,7.011142730671677,-0.10362392984832258,-299.5629980093894,-0.06344958704690043,1.0,0.0,1.0,0.0,-299.5629980093894,802776.9848741835,-5531563.834216223,81.60321604518882,3.2513073459609516,0.0,1600.0,31.997137105636966,84.9438316024697,0.6476709118218321,0.0,17.0,100.0,-0.1503769772055814,3.5769862067689635,3.5801457454535153,0.12312286925285365,-0.33720268130204456,0.0,0.0,7.213392956511453,8.0,1600.0,2.0,1600.0,0.0,0.0,0.0,0.0
66131400.0,-81.74248833333333,28.752328333333335,24.0,7.51603332684,-0.43225744366645813,3.7829623222351074,8.72336196899414,1678645330863.0,2834.0,99.0,9.0,1.0399999618530273,0.0,0.0,0.0,0.0,0.0,0.0,0.0,0.0,0.0,0.0,0.0,2.0,0.0,43.0,0.0,0.0,0.0,0.0,0.0,0.0,1.0,18.0,802828.4923992365,-5531891.918049786,31.960377358490565,8.026306327432394,1.2009069016203284,7.473888483364135,1.1119508277624846,3.4834309476213097,0.8578633396950531,0.7407834830638172,7.870632950300212,7.407834830638173,-0.10819849620182698,-199.8229458906673,0.9974005211872208,1.0,0.0,1.0,0.0,-199.8229458906673,802816.528273329,-5531829.622008351,81.18730370750734,3.8075780266536228,0.0,1700.0,39.584983209270376,79.2509954013712,0.6866535635116989,0.0,18.0,100.0,-0.24880435202533416,3.555493117273502,3.5641878335135466,0.18345309164112397,0.2274692049616056,0.0,0.0,7.959397907654961,8.0,1700.0,2.0,1700.0,0.0,0.0,0.0,0.0
66131500.0,-81.74248,28.75233,24.0,7.90186665984,-0.7280948162078857,5.186161041259766,9.773687362670898,1678645330932.0,3423.0,99.0,9.0,1.0399999618530273,0.0,0.0,0.0,0.0,0.0,0.0,0.0,0.0,0.0,0.0,0.0,2.0,0.0,43.0,0.0,0.0,0.0,0.0,0.0,0.0,1.0,19.0,802829.2568560179,-5531891.789239722,31.969811320754715,8.806190342758782,1.3269279971718788,7.798840153263882,1.2602109555155039,3.5123249827841523,0.9984172384390727,0.7752329992242626,8.645865949524476,7.752329992242625,-0.14953666759737416,-173.11048455329458,0.2671246133737273,1.0,0.0,1.0,0.0,-173.11048455329458,802776.7522564438,-5531583.467349669,80.74820214635491,5.237020947759267,0.0,1800.0,47.27963508919743,72.49477814689668,0.7376389411858345,0.0,19.0,100.0,-0.37969641761058315,3.6025091385387276,3.6224634522381804,0.3483983985973026,1.583651902721038,0.0,0.0,8.739852374958916,8.0,1800.0,2.0,1800.0,0.0,0.0,0.0,0.0
66131600.0,-81.74247166666666,28.752331666666667,24.0,8.23625554844,-1.1247155666351318,5.431148529052734,9.7101469039917,1678645331123.0,3423.0,99.0,9.0,1.0399999618530273,0.0,0.0,0.0,0.0,0.0,0.0,0.0,0.0,0.0,0.0,0.0,2.0,0.0,43.0,0.0,0.0,0.0,0.0,0.0,0.0,1.0,20.0,802830.0538079665,-5531891.653016653,31.979245283018866,9.618569525424391,1.4603620981797576,8.123791826656088,1.3343410100787878,3.4082214681775076,1.1947079898680535,0.808510440944141,9.454376390468617,8.08510440944141,-0.1511511389985909,-128.05440022940707,0.4505608432388752,1.0,0.0,1.0,0.0,-128.05440022940707,802814.6985065719,-5531814.4933275245,80.3661043816661,5.54638255536553,0.0,1900.0,54.670291642639086,66.79452149081453,0.7895845478727953,0.0,20.0,100.0,-0.5322115322036911,3.526404820859527,3.5663398710150878,0.5925040344314407,1.9047437081932075,0.0,0.0,9.55358428398275,8.0,1900.0,2.0,1900.0,0.0,0.0,0.0,0.0
66131700.0,-81.74246333333333,28.752333333333333,24.0,8.47804443712,-1.6101047992706299,3.3648340702056885,9.145540237426758,1678645331136.0,3423.0,99.0,10.0,0.8700000047683716,0.0,0.0,0.0,0.0,0.0,0.0,0.0,0.0,0.0,0.0,0.0,2.0,0.0,43.0,0.0,0.0,0.0,0.0,0.0,0.0,1.0,21.0,802830.8832550826,-5531891.501967573,31.988679245283016,10.463443875545636,1.6086222101002932,8.448743501212448,1.4826011192053556,3.31304111637007,1.3771857023263494,0.8430885736990527,10.29746496416767,8.430885736990527,-0.04715870012947221,-111.48191406717675,0.16572486162230318,1.0,0.0,1.0,0.0,-111.48191406717675,802748.0795598006,-5531434.858922651,79.99382947804622,3.7302206080406686,0.0,2000.0,61.41085415069938,62.363324209201295,0.8474556817380845,0.0,21.0,100.0,-0.7121071294533096,3.4457075615133053,3.518522014040583,0.8979976698173203,-0.08087349130761678,0.0,0.0,10.401894325761493,8.0,2000.0,2.0,2000.0,0.0,0.0,0.0,0.0
66131800.0,-81.742455,28.752333333333333,24.0,8.94618888116,-0.30646586418151855,4.549940586090088,9.53481674194336,1678645331248.0,4169.0,90.0,10.0,0.8700000047683716,0.0,0.0,0.0,0.0,0.0,0.0,0.0,0.0,0.0,0.0,0.0,2.0,0.0,43.0,0.0,0.0,0.0,0.0,0.0,0.0,1.0,22.0,802831.7451973662,-5531891.343505487,31.998113207547167,11.340813393122517,1.7642953274771571,8.773695175768808,1.5567311737686396,3.205325853794414,1.554332075116291,0.8763873189638176,11.173852283131488,8.763873189638176,-0.1823156915218238,-97.46470230102841,0.14017211766148335,1.0,0.0,1.0,0.0,-97.46470230102841,802819.7913291777,-5531839.024533007,79.44732369109755,4.560250065825156,-90.0,2100.0,67.75000419369212,59.10860349325609,0.8994195174922683,0.0,22.0,100.0,-0.9194853705177917,3.359080070176211,3.4826530496808408,-0.6130195063362731,1.1908605159138768,0.0,0.0,11.283503112805002,8.0,2100.0,2.0,2100.0,0.0,0.0,0.0,0.0
66131900.0,-81.742445,28.752335,23.9,9.270288880879999,-1.7159314155578613,5.448768615722656,9.973051071166992,1678645331358.0,4169.0,90.0,10.0,0.8700000047683716,0.0,0.0,0.0,0.0,0.0,0.0,0.0,0.0,0.0,0.0,0.0,2.0,0.0,43.0,0.0,0.0,0.0,0.0,0.0,0.0,1.0,23.0,802832.6396348169,-5531891.162804385,31.907547169811316,12.250678077805787,1.9422074612230062,9.098646846832708,1.7791213374584913,3.0434342687517217,1.8540995698464826,0.9125082144807712,12.08636049761226,9.125082144807713,-0.14520673607228574,-83.12709340759581,0.14337608893432602,1.0,0.0,1.0,0.0,-83.12709340759581,802818.5533802374,-5531832.693508821,78.48144586345472,5.712573855153437,0.0,2200.0,73.37512080133729,56.95928623839269,0.956562705916576,0.0,23.0,100.0,-1.156473391877535,3.2766618634049802,3.4747580740554196,0.5594580236803264,2.172106752317676,0.0,0.0,12.201232795365465,8.0,2200.0,2.0,2200.0,0.0,0.0,0.0,0.0
66132000.0,-81.742435,28.752336666666668,23.9,9.58924443616,-0.7647184133529663,3.9601759910583496,10.225153923034668,1678645331432.0,4169.0,90.0,10.0,0.8700000047683716,0.0,0.0,0.0,0.0,0.0,0.0,0.0,0.0,0.0,0.0,0.0,2.0,0.0,43.0,0.0,0.0,0.0,0.0,0.0,0.0,1.0,24.0,802833.5665674352,-5531890.959864266,31.916981132075467,13.19303793006111,2.1423586113378406,9.42359852255322,2.001511501148343,2.6684491775793537,2.148778045269283,0.948888175962331,13.035248673574591,9.48888175962331,-0.10036267653669029,-71.89024699938707,0.11236846408208734,1.0,0.0,1.0,0.0,-71.89024699938707,802822.1104866728,-5531849.441223198,77.34049533557166,4.033334616899031,0.0,2300.0,78.03748303267548,56.58312647769627,1.001331464457116,0.0,24.0,100.0,-1.3879789232733204,3.0020540054395255,3.307387752143142,-0.6232605099203541,0.9581219856188241,0.0,0.0,13.155342439407487,8.0,2300.0,2.0,2300.0,0.0,0.0,0.0,0.0
66132100.0,-81.742425,28.75234,23.9,9.903055547,-3.0530717372894287,3.0577125549316406,9.355116844177246,1678645331535.0,4169.0,90.0,9.0,1.0399999618530273,0.0,0.0,0.0,0.0,0.0,0.0,0.0,0.0,0.0,0.0,0.0,2.0,0.0,43.0,0.0,0.0,0.0,0.0,0.0,0.0,1.0,25.0,802834.5194961871,-5531890.727272123,31.926415094339617,14.161393916001543,2.372161786071956,9.68355985940434,2.298031747341156,2.3758970665763406,2.5248808535707967,0.9809038236820936,14.016152497256684,9.809038236820935,-0.09401731017906378,-62.38892872831826,0.09501318271068811,1.0,0.0,1.0,0.0,-62.38892872831826,802816.3363406123,-5531825.109840869,76.21986324327253,4.320978257480831,0.0,2400.0,82.03634777262187,57.103092619025986,1.0400627068228794,0.0,25.0,100.0,-1.6727233437573714,2.871180651142597,3.3229026040867446,1.3803483935320573,0.1865319037890436,0.0,0.0,14.141467731169271,8.0,2400.0,2.0,2400.0,0.0,0.0,0.0,0.0
66132200.0,-81.742415,28.752341666666666,23.9,10.37634443548,-3.2447597980499268,3.8233799934387207,9.959111213684082,1678645331640.0,4762.0,56.99999999999999,9.0,1.0399999618530273,0.0,0.0,0.0,0.0,0.0,0.0,0.0,0.0,0.0,0.0,0.0,2.0,0.0,43.0,0.0,0.0,0.0,0.0,0.0,0.0,1.0,26.0,802835.4984210731,-5531890.472440966,31.935849056603768,15.155746035976335,2.624203974381089,9.94352119974792,2.5204218830913305,2.065498637768918,2.963021222377777,1.011549727300356,15.02770222455704,10.115497273003559,-0.26084716247644124,-53.60859902992375,0.08780329698394511,1.0,0.0,1.0,0.0,-53.60859902992375,802821.4110481676,-5531845.130482064,75.13271957071595,5.014648613937817,-330.00000000000006,2500.0,86.21248443650029,57.79161046423702,1.0601534078697434,0.0,26.0,100.0,-1.9620736369227125,2.7494409372325195,3.3777445764943734,1.2826861611272142,1.0739390562062012,0.0,0.0,15.158238926549318,8.0,2500.0,2.0,2500.0,0.0,0.0,0.0,0.0
66132300.0,-81.742405,28.752343333333332,23.9,10.715877768519999,-5.813488006591797,-0.1980593204498291,10.051576614379883,1678645331812.0,4762.0,56.99999999999999,9.0,1.0399999618530273,0.0,0.0,0.0,0.0,0.0,0.0,0.0,0.0,0.0,0.0,0.0,2.0,0.0,43.0,0.0,0.0,0.0,0.0,0.0,0.0,1.0,27.0,802836.4968430593,-5531890.187957785,31.94528301886792,16.16959525621496,2.9058981873095036,10.13849220238626,2.8169421292841434,1.7480891606534201,3.4462357842920266,1.038160461129885,16.065862685686923,10.38160461129885,-0.3342731572211495,-46.85864967856936,0.06749949351354395,1.0,0.0,1.0,0.0,-46.85864967856936,802824.1321597237,-5531854.92406924,73.62255264086701,5.816860862802523,0.0,2600.0,91.11482161997401,57.697423897334886,1.063289995712198,0.0,27.0,100.0,-2.2778090949598737,2.6692415247180508,3.5090261598285446,3.535678911631923,-2.4711822042682217,0.0,0.0,16.201620855758893,8.0,2600.0,2.0,2600.0,0.0,0.0,0.0,0.0
66132400.0,-81.74239333333334,28.752346666666668,23.9,11.09142221264,-5.422825336456299,-0.6841225028038025,9.693961143493652,1678645331846.0,4762.0,56.99999999999999,9.0,1.0399999618530273,0.0,0.0,0.0,0.0,0.0,0.0,0.0,0.0,0.0,0.0,0.0,2.0,0.0,43.0,0.0,0.0,0.0,0.0,0.0,0.0,1.0,28.0,802837.5082631123,-5531889.866409576,31.954716981132073,17.196442543063313,3.22465742751956,10.268472868483514,3.187592402100563,1.3297630102348088,3.918545276179896,1.061302866568886,17.12716555225581,10.613028665688859,-0.4783935469511409,-41.75236084591162,0.05106288832657739,1.0,0.0,1.0,0.0,-41.75236084591162,802824.813241757,-5531857.118098927,71.82602359332714,5.4658081038904855,0.0,2700.0,96.78508212628049,56.768523921958305,1.0517540908139011,0.0,28.0,100.0,-2.6114150144548804,2.497935004522814,3.6137470393679707,2.8114103220014184,-1.8138125017190116,0.0,0.0,17.26814519040747,8.0,2700.0,2.0,2700.0,0.0,0.0,0.0,0.0
66132500.0,-81.74238333333334,28.75235,23.9,11.2406111014,-6.866822719573975,2.846184492111206,10.196184158325195,1678645331944.0,4762.0,56.99999999999999,9.0,1.0399999618530273,0.0,0.0,0.0,0.0,0.0,0.0,0.0,0.0,0.0,0.0,0.0,2.0,0.0,43.0,0.0,0.0,0.0,0.0,0.0,0.0,1.0,29.0,802838.5196831654,-5531889.50779634,31.964150943396223,18.223289830144495,3.580481695011258,10.26847287081182,3.5582426749169827,0.9651882660617228,4.282531359614442,1.0731141489697664,18.200279701225575,10.731141489697665,-0.5094696117023361,-38.31674886081996,0.03435611985091654,1.0,0.0,1.0,0.0,-38.31674886081996,802826.2822925755,-5531861.357525476,69.80271034721318,7.433304811804211,0.0,2800.0,103.28597412760928,55.27202129401301,1.0343366165465386,0.0,29.0,100.0,-2.971229387031218,2.3588804904237235,3.793747650867091,3.8955933325427567,0.48730400168748256,0.0,0.0,18.346480807456928,8.0,2800.0,2.0,2800.0,0.0,0.0,0.0,0.0
66132600.0,-81.74237166666667,28.752353333333332,23.9,11.08113332376,-4.262598991394043,2.3765010833740234,10.61912727355957,1678645332045.0,5105.0,13.0,9.0,1.0399999618530273,0.0,0.0,0.0,0.0,0.0,0.0,0.0,0.0,0.0,0.0,0.0,2.0,0.0,43.0,0.0,0.0,0.0,0.0,0.0,0.0,1.0,30.0,802839.5311032187,-5531889.104705069,31.973584905660374,19.250137117458507,3.980783997103572,10.268472873140126,4.003023020923138,0.5081950973324484,4.652575809836155,1.0887851471153887,19.289064848340963,10.887851471153887,-0.19328185260611264,-35.46153895755644,0.02855209903263521,1.0,0.0,1.0,0.0,-35.46153895755644,802828.8729445144,-5531868.003012908,67.23808584080717,4.880318387227561,-439.9999999999999,2900.0,110.61684711850512,54.52867002601731,1.013866969739379,0.0,30.0,100.0,-3.3528968008777307,2.14864131680649,3.982282820898592,0.9097021905163123,0.22785976656753348,0.0,0.0,19.440487422652005,8.0,2900.0,2.0,2900.0,0.0,0.0,0.0,0.0
66132700.0,-81.74236166666667,28.752356666666667,23.9,11.045122212679999,-3.9468908309936523,3.7755050659179688,10.023609161376953,1678645332222.0,5105.0,13.0,9.0,1.0399999618530273,0.0,0.0,0.0,0.0,0.0,0.0,0.0,0.0,0.0,0.0,0.0,2.0,0.0,43.0,0.0,0.0,0.0,0.0,0.0,0.0,1.0,31.0,802840.5360242383,-5531888.642309754,31.983018867924525,20.27048537111841,4.440390343777835,10.20348253659904,4.596063466742635,-0.03378052887363403,4.967852710341611,1.1061987539051559,20.395263602246118,11.06198753905156,0.01686532637156013,-33.43886470318788,0.020226742543685602,1.0,0.0,1.0,0.0,-33.43886470318788,802829.3790616941,-5531869.126617454,64.17433422857744,5.4619031238712035,0.0,3000.0,118.30867309560426,54.32805202604722,0.993989272870149,0.0,31.0,100.0,-3.761853969666854,1.922017436683483,4.224416683521361,0.18503686132679853,1.8534876292344857,0.0,0.0,20.551907644636852,8.0,3000.0,2.0,3000.0,0.0,0.0,0.0,0.0
66132800.0,-81.74235166666666,28.752361666666665,23.9,11.19945554588,-4.560290336608887,3.104646682739258,10.083582878112793,1678645332232.0,5105.0,13.0,10.0,0.8700000047683716,0.0,0.0,0.0,0.0,0.0,0.0,0.0,0.0,0.0,0.0,0.0,2.0,0.0,43.0,0.0,0.0,0.0,0.0,0.0,0.0,1.0,32.0,802841.5344462246,-5531888.11319739,31.992452830188675,21.284334591357037,4.966713739559054,10.13849220238626,5.26323395781219,-0.6309947505031281,5.231997076952943,1.1299585640705683,21.525222166316688,11.299585640705683,0.10013009482568336,-32.13496984206698,0.013038948611209022,1.0,0.0,1.0,0.0,-32.13496984206698,802828.2606628172,-5531866.972261713,61.12661845185812,5.516799704431208,0.0,3100.0,125.14847868826791,54.66204726371445,0.9784839924945038,0.0,32.0,100.0,-4.188751970605356,1.6505081171933087,4.502201696522631,0.37153836600353074,1.4541385655459491,0.0,0.0,21.68708767678711,8.0,3100.0,2.0,3100.0,0.0,0.0,0.0,0.0
66132900.0,-81.74234166666666,28.752366666666667,23.9,11.56985554556,-5.551610469818115,0.30438661575317383,9.8541841506958,1678645332334.0,4241.0,24.0,10.0,0.8700000047683716,0.0,0.0,0.0,0.0,0.0,0.0,0.0,0.0,0.0,0.0,0.0,2.0,0.0,43.0,0.0,0.0,0.0,0.0,0.0,0.0,1.0,33.0,802842.519870144,-5531887.524780981,32.00188679245283,22.285185744753107,5.552341179922223,10.0085115339607,5.856274403631687,-1.181043706692441,5.446220570325794,1.1477343643021685,22.672956530618855,11.477343643021685,-0.09251190253831432,-30.882949715912563,0.012520201261544166,1.0,0.0,1.0,0.0,-30.882949715912563,802828.1698886029,-5531866.817126436,58.218503010369375,5.559948742609394,110.0,3200.0,130.92964327181335,55.2978983985999,0.9627428382429484,0.0,33.0,100.0,-4.626055671862048,1.4780700682404848,4.856447488215584,0.9255547979560674,-1.173683452487311,0.0,0.0,22.84004350916897,8.0,3200.0,2.0,3200.0,0.0,0.0,0.0,0.0
66133000.0,-81.74233166666667,28.752373333333335,23.8,12.08429998956,-7.635702610015869,3.31093692779541,10.533930778503418,1678645332438.0,4241.0,24.0,10.0,0.8700000047683716,0.0,0.0,0.0,0.0,0.0,0.0,0.0,0.0,0.0,0.0,0.0,2.0,0.0,43.0,0.0,0.0,0.0,0.0,0.0,0.0,1.0,34.0,802843.4987950298,-5531886.8696475215,31.91132075471698,23.279537864611484,6.2046856712549925,9.943521198583767,6.523444913327694,-1.730880210692616,5.883391620241165,1.1779192596237729,23.85087579024263,11.779192596237728,-0.3051073933222721,-29.377684243644484,0.015052654722680785,1.0,0.0,1.0,0.0,-29.377684243644484,802826.6783780253,-5531864.543654787,55.40515575560306,8.322635261048177,0.0,3300.0,135.186541821819,54.68465186411524,0.9456563999573483,0.0,34.0,100.0,-5.068477322716751,1.5294253437941494,5.29420478005279,2.5672252872991184,1.7815115840012608,0.0,0.0,24.023184236872435,8.0,3300.0,2.0,3300.0,0.0,0.0,0.0,0.0
66133100.0,-81.74232,28.75238,23.8,12.32608887824,-7.289608478546143,3.4462804794311523,10.643243789672852,1678645332572.0,4241.0,24.0,10.0,0.8700000047683716,0.0,0.0,0.0,0.0,0.0,0.0,0.0,0.0,0.0,0.0,0.0,2.0,0.0,43.0,0.0,0.0,0.0,0.0,0.0,0.0,1.0,35.0,802844.4647218487,-5531886.155210017,31.92075471698113,24.26089191751089,6.916334207169712,9.813540528994054,7.116485359147191,-2.3393546074716216,6.245439014957453,1.201430633460405,25.052306423703033,12.01430633460405,-0.3117825436359496,-27.90567119102298,0.014720130526215059,1.0,0.0,1.0,0.0,-27.90567119102298,802827.8499097559,-5531866.159181781,52.58369928719492,8.06320289422262,0.0,3400.0,138.7199328127881,52.47342183771893,0.9210015148308921,0.0,35.0,100.0,-5.508398503886995,1.6045932530726001,5.737349003279354,1.7812099746591477,1.8416872263585522,0.0,0.0,25.229836338412532,8.0,3400.0,2.0,3400.0,0.0,0.0,0.0,0.0
66133200.0,-81.74231,28.752386666666666,23.8,12.30036665604,-6.068262100219727,-0.09332025051116943,9.231404304504395,1678645332683.0,4241.0,24.0,10.0,0.8700000047683716,0.0,0.0,0.0,0.0,0.0,0.0,0.0,0.0,0.0,0.0,0.0,2.0,0.0,43.0,0.0,0.0,0.0,0.0,0.0,0.0,1.0,36.0,802845.4046525338,-5531885.381468468,31.93018867924528,25.216249836608768,7.68728678766638,9.55357919097878,7.709525804966688,-2.9724739169980214,6.667585342747398,1.2174340545804707,26.269740478283502,12.174340545804707,-0.12602611023529242,-26.10549633727186,0.018001748537511197,1.0,0.0,1.0,0.0,-26.10549633727186,802828.0547565735,-5531866.413026205,49.590010549923534,6.068979616551583,0.0,3500.0,141.62745869865557,48.07456828865858,0.8962275618770145,0.0,36.0,100.0,-5.930669209323027,1.787659824562115,6.194236427419095,0.13759289089669924,-1.6943395740509455,0.0,0.0,26.45249186107269,8.0,3500.0,2.0,3500.0,0.0,0.0,0.0,0.0
66133300.0,-81.74230166666666,28.752393333333334,23.8,12.43926665592,-8.645171165466309,-1.402012825012207,10.603078842163086,1678645332787.0,3618.0,21.0,10.0,0.8700000047683716,0.0,0.0,0.0,0.0,0.0,0.0,0.0,0.0,0.0,0.0,0.0,2.0,0.0,43.0,0.0,0.0,0.0,0.0,0.0,0.0,1.0,37.0,802846.305589018,-5531884.555835881,31.93962264150943,26.13261355482973,8.510130406357348,9.16363718220964,8.228436186909676,-3.6346997203650613,6.983346903733801,1.2220293439357444,27.491769822219247,12.220293439357444,-0.21897321656255464,-24.319684361644402,0.01785811975627457,1.0,0.0,1.0,0.0,-24.319684361644402,802828.9897709363,-5531867.454309417,46.46939036557583,8.758117631187012,-30.0,3600.0,144.92914864326485,42.267469951741184,0.8717328947324713,0.0,37.0,100.0,-6.3214014364706355,2.0515570788135964,6.645976419507008,2.323769728995673,-0.6495442538013894,0.0,0.0,27.67974267308813,8.0,3600.0,2.0,3600.0,0.0,0.0,0.0,0.0
66133400.0,-81.74229166666667,28.752401666666668,23.8,12.722211100120001,-7.271167755126953,3.266233444213867,10.381081581115723,1678645332901.0,3618.0,21.0,10.0,0.8700000047683716,0.0,0.0,0.0,0.0,0.0,0.0,0.0,0.0,0.0,0.0,0.0,2.0,0.0,43.0,0.0,0.0,0.0,0.0,0.0,0.0,1.0,38.0,802847.1675313014,-5531883.670899249,31.94905660377358,27.00998307217378,9.392278070561588,8.773695173440501,8.821476642042398,-4.34876482159459,7.203871101456392,1.235336935217486,28.727106757436733,12.35336935217486,-0.36884174794514024,-23.199451595209556,0.01120232766434846,1.0,0.0,1.0,0.0,-23.199451595209556,802831.2598038763,-5531869.712046742,42.941799513590865,7.971082827025392,0.0,3700.0,148.80445336088042,35.858157610127876,0.8463461711029973,0.0,38.0,100.0,-6.659219728704502,2.308287910589536,7.047935901619784,0.6119480264224508,0.957945533624331,0.0,0.0,28.920301076385304,8.0,3700.0,2.0,3700.0,0.0,0.0,0.0,0.0
66133500.0,-81.74228333333333,28.75241,23.8,12.737644433440002,-8.92144775390625,1.059722661972046,8.697970390319824,1678645333008.0,3618.0,21.0,10.0,0.8700000047683716,0.0,0.0,0.0,0.0,0.0,0.0,0.0,0.0,0.0,0.0,0.0,2.0,0.0,43.0,0.0,0.0,0.0,0.0,0.0,0.0,1.0,39.0,802847.9774813174,-5531882.719245566,31.958490566037735,27.835360322031192,10.341142784804106,8.253772498574108,9.48864714242518,-5.087262383960834,7.2462795967197815,1.2496654592459007,29.976772216682633,12.496654592459006,-0.24098984098099585,-22.535050612427774,0.006644009827817818,1.0,0.0,1.0,0.0,-22.535050612427774,802832.2223793052,-5531870.549350355,38.95497352982929,8.984166190914769,0.0,3800.0,153.35445383067372,30.021424494737,0.8281663458549592,0.0,39.0,100.0,-6.926758064749157,2.4680226023644014,7.35330625319992,1.9946896891570933,-1.4082999403923555,0.0,0.0,30.175188003710897,8.0,3800.0,2.0,3800.0,0.0,0.0,0.0,0.0
66133600.0,-81.742275,28.75242,23.8,12.737644433440002,-5.502500057220459,1.185717225074768,9.606887817382812,1678645333045.0,3618.0,21.0,10.0,0.8700000047683716,0.0,0.0,0.0,0.0,0.0,0.0,0.0,0.0,0.0,0.0,0.0,2.0,0.0,43.0,0.0,0.0,0.0,0.0,0.0,0.0,1.0,40.0,802848.728940032,-5531881.693461827,31.967924528301886,28.60224627063144,11.364137555472553,7.668859486002475,10.22994770668447,-5.724418361696541,7.218895827539707,1.2715826670149406,31.248354883697573,12.715826670149406,-0.021817763290595593,-22.49377761960568,0.0004127299282209407,1.0,0.0,0.0,1.0,-22.49377761960568,802831.4076039215,-5531869.938555634,34.874580072093096,5.62880379988059,0.0,3900.0,157.5294167404918,24.60702350662087,0.8159910852809558,0.0,40.0,100.0,-7.093663599898421,2.6314808628065784,7.566026354688509,-1.591163542677962,-1.4457636377318104,0.0,0.0,31.451992138805526,8.0,3900.0,2.0,3900.0,0.0,0.0,0.0,0.0
66133700.0,-81.74226833333333,28.752428333333334,23.8,12.742788877879999,-9.209003448486328,1.0280182361602783,8.49887466430664,1678645333231.0,3711.0,63.0,10.0,0.8700000047683716,0.0,0.0,0.0,0.0,0.0,0.0,0.0,0.0,0.0,0.0,0.0,2.0,0.0,43.0,0.0,0.0,0.0,0.0,0.0,0.0,1.0,41.0,802849.4219074455,-5531880.593548032,31.977358490566036,29.310640918207355,12.461262381635606,7.083946475759149,10.971248261630535,-6.235800298543856,7.018243043399416,1.3000054583396357,32.548360342037206,13.000054583396356,0.25726570551635675,-23.157341897765267,-0.006635642781595869,1.0,0.0,0.0,1.0,-23.157341897765267,802831.4354800038,-5531869.956554751,30.821049996555445,9.266205588487187,420.0,4000.0,161.08383532055132,20.688476437875696,0.8060806516067774,0.0,41.0,100.0,-7.142811368997361,2.7140927364606076,7.641076732711574,2.0661920794889674,-1.6860745003003292,0.0,0.0,32.75721906522485,8.0,4000.0,2.0,4000.0,0.0,0.0,0.0,0.0
66133800.0,-81.74226166666666,28.752438333333334,23.8,12.773655544519999,-6.944125175476074,2.4794833660125732,10.368244171142578,1678645333238.0,3711.0,63.0,10.0,0.8700000047683716,0.0,0.0,0.0,0.0,0.0,0.0,0.0,0.0,0.0,0.0,0.0,2.0,0.0,43.0,0.0,0.0,0.0,0.0,0.0,0.0,1.0,42.0,802850.056383558,-5531879.4046781715,31.986792452830187,29.96054426464252,13.647343274205923,6.499033464351669,11.860808925703168,-6.5447115349385765,6.849820731069507,1.3475798616543448,33.89594020369155,13.475798616543448,0.7021430720234498,-24.94598206664795,-0.01788640168882683,1.0,0.0,0.0,1.0,-24.94598206664795,802831.5974332223,-5531870.045295699,26.598067030217152,7.37351423779826,0.0,4100.0,163.13026153990904,17.92505949669521,0.8010101667859049,0.0,42.0,100.0,-7.052467216445821,2.831618831162996,7.5996946678165935,-0.10834204096974709,-0.3521354651504227,0.0,0.0,34.11002039495889,8.0,4100.0,2.0,4100.0,0.0,0.0,0.0,0.0
66133900.0,-81.742255,28.752451666666666,23.9,13.07203332204,-8.279333114624023,0.7316806316375732,9.939053535461426,1678645333409.0,3910.0,99.0,10.0,0.8700000047683716,0.0,0.0,0.0,0.0,0.0,0.0,0.0,0.0,0.0,0.0,0.0,2.0,0.0,43.0,0.0,0.0,0.0,0.0,0.0,0.0,1.0,43.0,802850.6193703022,-5531878.126852242,32.096226415094335,30.538958242861554,14.922380235046148,5.784139782190323,12.750369608402252,-6.637342412566817,6.725745560858921,1.396349948818056,35.29229015250961,13.96349948818056,0.8914661661405603,-27.440614228426995,-0.024946321617790444,1.0,0.0,0.0,1.0,-27.440614228426995,802829.5055804759,-5531869.096337423,22.449699004827806,8.31160113152836,360.0,4200.0,163.43582333335507,15.583041715091426,0.8031283467465863,0.0,43.0,100.0,-6.81125732581674,3.0407240363433954,7.4591708000077785,1.4680757888072833,-2.309043404705822,0.0,0.0,35.51159181185663,8.0,4200.0,2.0,4200.0,0.0,0.0,0.0,0.0
66134000.0,-81.74225,28.752463333333335,23.9,13.3498333218,-6.744082927703857,4.595427989959717,9.803034782409668,1678645333432.0,3910.0,99.0,10.0,0.8700000047683716,0.0,0.0,0.0,0.0,0.0,0.0,0.0,0.0,0.0,0.0,0.0,2.0,0.0,43.0,0.0,0.0,0.0,0.0,0.0,0.0,1.0,44.0,802851.1043686449,-5531876.782309265,32.10566037735849,31.03938381955959,16.264134244062006,5.00425576698035,13.417540090158582,-6.504132410337989,6.50619071542647,1.4293422300118752,36.721632382521484,14.293422300118753,0.9435889783187523,-30.323564911107297,-0.028829506826803027,1.0,0.0,0.0,1.0,-30.323564911107297,802826.590123907,-5531868.008977884,18.72005024891564,8.160919859099943,0.0,4300.0,163.3078313275837,13.299450553915818,0.8078392567974924,0.0,44.0,100.0,-6.400992464584725,3.217051793708638,7.163946312967064,0.3430904631191325,1.3783761962510788,0.0,0.0,36.946155509948206,8.0,4300.0,2.0,4300.0,0.0,0.0,0.0,0.0
66134100.0,-81.742245,28.752476666666666,23.9,13.60191109936,-5.559865951538086,2.295480251312256,9.631402969360352,1678645333621.0,3910.0,99.0,10.0,0.8700000047683716,0.0,0.0,0.0,0.0,0.0,0.0,0.0,0.0,0.0,0.0,0.0,2.0,0.0,43.0,0.0,0.0,0.0,0.0,0.0,0.0,1.0,45.0,802851.5178776196,-5531875.371049236,32.11509433962264,31.46832002827432,17.672605304978788,4.28936208714731,14.084710609167814,-6.08113222780533,6.187521135534979,1.4705932620789426,38.19222564460043,14.705932620789426,1.1040215214294253,-35.27788271679352,-0.04954317805686223,1.0,0.0,0.0,1.0,-35.27788271679352,802823.6128984023,-5531867.102292711,15.362286324149665,6.015092599722558,0.0,4400.0,162.60073944022952,10.23702857352334,0.8149624007030728,0.0,45.0,100.0,-5.83091854106151,3.3749695859390214,6.737212386329252,-0.2710525895234239,-1.0794893346267656,0.0,0.0,38.42197024010684,8.0,4400.0,2.0,4400.0,0.0,0.0,0.0,0.0
66134200.0,-81.74224166666667,28.75249,23.9,13.86942221024,-4.804608345031738,2.786632537841797,9.93857192993164,1678645333632.0,3910.0,99.0,10.0,0.8700000047683716,0.0,0.0,0.0,0.0,0.0,0.0,0.0,0.0,0.0,0.0,0.0,2.0,0.0,43.0,0.0,0.0,0.0,0.0,0.0,0.0,1.0,46.0,802851.8598972259,-5531873.907898166,32.12452830188679,31.825766868540086,19.132967405952513,3.574468402657658,14.603621009737253,-5.4378150209913,5.768525172128481,1.5025939114854894,39.69481955608592,15.025939114854893,1.156516904614893,-42.2004891864449,-0.06922606469651377,1.0,0.0,0.0,1.0,-42.2004891864449,802815.3839911869,-5531865.088136848,12.531596183538653,5.55424002453146,0.0,4500.0,162.21960983358622,5.951260965968798,0.8252084031966188,0.0,46.0,100.0,-5.111776083586344,3.480331970028952,6.184089694557393,-0.30716773855460566,-0.693699432187155,0.0,0.0,39.92978561967202,8.0,4500.0,2.0,4500.0,0.0,0.0,0.0,0.0
66134300.0,-81.74224,28.752503333333333,23.8,14.162655543320001,-2.570838212966919,2.799391746520996,10.46322250366211,1678645333781.0,4037.0,99.0,10.0,0.8700000047683716,0.0,0.0,0.0,0.0,0.0,0.0,0.0,0.0,0.0,0.0,0.0,2.0,0.0,43.0,0.0,0.0,0.0,0.0,0.0,0.0,1.0,47.0,802852.1434255312,-5531872.407682071,32.033962264150944,32.124722407897934,20.630394532345235,2.9895553935784847,14.974271263927221,-4.563345531409349,5.224969386768258,1.5267732742508664,41.22159283033678,15.267732742508663,1.1050771991886617,-52.7434275923331,-0.10542938405888201,1.0,0.0,0.0,1.0,-52.7434275923331,802796.9074319846,-5531861.399363206,10.48161124259606,3.80076351115678,0.0,4600.0,162.17613344330493,-0.0693254598769828,0.8338212625070802,0.0,47.0,100.0,-4.26362407758549,3.4522738811085714,5.486044588330572,-1.6927858646185712,-0.6528821345875753,0.0,0.0,41.46178036200257,8.0,4600.0,2.0,4600.0,0.0,0.0,0.0,0.0
66134400.0,-81.74223833333333,28.752516666666665,23.8,14.352999987599999,-1.7230304479599,3.8482260704040527,9.70589542388916,1678645333839.0,4037.0,99.0,10.0,0.8700000047683716,0.0,0.0,0.0,0.0,0.0,0.0,0.0,0.0,0.0,0.0,0.0,2.0,0.0,43.0,0.0,0.0,0.0,0.0,0.0,0.0,1.0,48.0,802852.3879596356,-5531870.877813953,32.04339622641509,32.38468374626245,22.157473682425916,2.599613383645192,15.270791500806808,-3.5684134058935024,4.410726188530706,1.5492880261889899,42.77088085652577,15.492880261889898,1.139880274289899,-70.16622595279613,-0.17422798360463027,1.0,0.0,0.0,1.0,-70.16622595279613,802721.767477989,-5531848.60796139,9.320527898468498,4.216358359240153,0.0,4700.0,162.47734387234777,-7.150497765410334,0.8376960774836683,0.0,48.0,100.0,-3.312745265476912,3.131181747486844,4.558352808826283,-1.5897148175170122,0.7170443229172085,0.0,0.0,43.01628985627126,8.0,4700.0,2.0,4700.0,0.0,0.0,0.0,0.0
66134500.0,-81.742235,28.752531666666666,23.8,14.641088876240001,1.3853387832641602,3.228073835372925,9.871478080749512,1678645334003.0,4037.0,99.0,10.0,0.8700000047683716,0.0,0.0,0.0,0.0,0.0,0.0,0.0,0.0,0.0,0.0,0.0,2.0,0.0,43.0,0.0,0.0,0.0,0.0,0.0,0.0,1.0,49.0,802852.6194956732,-5531869.310880806,32.052830188679245,32.63164701778442,23.72161786071956,2.469632715219632,15.641441782936454,-2.357838295658015,3.5252367579550206,1.5839471022994982,44.35482795882527,15.839471022994982,1.1983821467549802,-108.64490740068989,-0.38478681447893764,1.0,0.0,0.0,1.0,-108.64490740068989,802594.9814751453,-5531828.589675058,8.796997710901564,3.5127801284787363,0.0,4800.0,162.01564277268244,-14.93434010666816,0.8342100284814848,0.0,49.0,100.0,-2.2949042823497114,2.7513120850861967,3.5827787895275365,-0.9095654990855513,0.47676175028672807,0.0,0.0,44.60545842665044,8.0,4800.0,2.0,4800.0,0.0,0.0,0.0,0.0
66134600.0,-81.74223333333333,28.752545,23.7,14.8159999872,2.0421833992004395,3.1941850185394287,9.568374633789062,1678645334042.0,4037.0,99.0,10.0,0.8700000047683716,0.0,0.0,0.0,0.0,0.0,0.0,0.0,0.0,0.0,0.0,0.0,2.0,0.0,43.0,0.0,0.0,0.0,0.0,0.0,0.0,1.0,50.0,802852.8445326774,-5531867.721708644,31.962264150943394,32.87211125600152,25.30800105445087,2.404642382171005,15.86383193731308,-1.085013530913396,2.703481205794188,1.6050264216236,45.95985438044887,16.050264216236002,1.2342642290360022,-217.49870341926717,-1.0885379601857728,1.0,0.0,0.0,1.0,-217.49870341926717,803162.3821739121,-5531914.596370871,8.765108640297,3.791217610297725,0.0,4900.0,161.52269036381313,-22.77235574888006,0.8276790806067288,0.0,50.0,100.0,-1.2406703849353924,2.3601115818611387,2.6663438793394265,0.8015130142650471,0.83407343667829,0.0,0.0,46.21570631635373,8.0,4900.0,2.0,4900.0,0.0,0.0,0.0,0.0
66134700.0,-81.74223,28.75256,23.8,15.124666653599999,3.6922969818115234,4.890035629272461,8.897855758666992,1678645334138.0,4194.0,86.0,10.0,0.8700000047683716,0.0,0.0,0.0,0.0,0.0,0.0,0.0,0.0,0.0,0.0,0.0,2.0,0.0,43.0,0.0,0.0,0.0,0.0,0.0,0.0,1.0,51.0,802853.0825677484,-5531866.102884458,32.071698113207546,33.12557356094476,26.924036271870136,2.534623049432412,16.160352174192667,0.26004631971561676,1.8710629726221513,1.6362311693465486,47.59608554979542,16.362311693465486,1.2376450398654875,-10136.51624073632,-99.19017537317053,0.0,0.0,0.0,0.0,0.0,803021.9662088446,-5531892.57324059,9.184503760055918,6.1274387355116495,-130.0,5000.0,159.97686973290365,-29.8279292815225,0.8214706961097665,0.0,51.0,100.0,-0.17381534192719572,1.9314970935545719,1.939302141364008,3.5184816398843277,2.958538535717889,0.0,0.0,47.85715895377997,8.0,5000.0,2.0,5000.0,0.0,0.0,0.0,0.0
66134800.0,-81.74222833333333,28.752575,23.7,15.5104999866,4.834517002105713,1.664948582649231,9.619551658630371,1678645334237.0,4194.0,86.0,10.0,0.8700000047683716,0.0,0.0,0.0,0.0,0.0,0.0,0.0,0.0,0.0,0.0,0.0,2.0,0.0,43.0,0.0,0.0,0.0,0.0,0.0,0.0,1.0,52.0,802853.3400999198,-5531864.461821257,31.981132075471695,33.398532966384664,28.562310504727066,2.7295940543990582,16.382742328569293,1.5420066964915786,1.0228929958687123,1.6611475701436886,49.25723311993911,16.611475701436888,1.1009757148368884,255.2800445724269,103.91796285308746,0.0,0.0,0.0,0.0,0.0,802940.4964360981,-5531878.999236743,9.985125154045761,5.1131798742577885,0.0,5100.0,157.61291453956528,-35.89965522820656,0.8196523308159639,0.0,52.0,100.0,0.8751700060247041,1.4398521739732004,1.684961964656957,3.959346996081009,0.22509640867603053,0.0,0.0,49.52352799200336,8.0,5100.0,2.0,5100.0,0.0,0.0,0.0,0.0
66134900.0,-81.742225,28.75259,23.7,15.73685554196,5.894861221313477,3.349283218383789,9.353889465332031,1678645334351.0,4194.0,86.0,10.0,0.8700000047683716,0.0,0.0,0.0,0.0,0.0,0.0,0.0,0.0,0.0,0.0,0.0,2.0,0.0,43.0,0.0,0.0,0.0,0.0,0.0,0.0,1.0,53.0,802853.6147000244,-5531862.81055608,31.999999999999996,33.70398753893096,30.20799774490297,3.054545725462958,16.45687240175903,2.869857602936788,0.41196826710230217,1.673942024684724,50.931175144623836,16.739420246847242,1.0025647048872415,127.79784772866095,-1.2748219684376594,2.0,0.0,2.0,0.0,127.79784772866095,802920.9239034337,-5531875.366396029,11.194195210284306,6.779903162692863,0.0,5200.0,154.09293822831205,-41.49269270047887,0.8205106516196812,0.0,53.0,100.0,1.8862631604306894,1.1836168143036419,2.2268671881143414,4.008598060882787,2.165666404080147,0.0,0.0,51.207912952847465,8.0,5200.0,3.0,77.0,0.0,0.0,0.0,0.0
66135000.0,-81.74222166666667,28.752605,23.6,15.767722208599999,7.074565410614014,2.285144805908203,7.611831188201904,1678645334431.0,4382.0,27.0,9.0,1.0399999618530273,0.0,0.0,0.0,0.0,0.0,0.0,0.0,0.0,0.0,0.0,0.0,2.0,0.0,43.0,0.0,0.0,0.0,0.0,0.0,0.0,1.0,54.0,802853.9801972415,-5531861.176133865,31.9,34.04843631235417,31.846271977759898,3.444487734232098,16.382742328569293,3.988864116180244,-0.13231451219132284,1.6747907913258584,52.6059659359497,16.747907913258583,0.9801857046585845,89.32785794466031,-0.38469989784000647,2.0,0.0,2.0,0.0,89.32785794466031,802904.36474884,-5531871.8848174475,12.767063810559534,7.434471234259062,-590.0,5300.0,149.10559266233395,-46.48270846340849,0.8236227099125331,0.0,54.0,100.0,2.8346761376380627,0.9305942209410041,2.9835204724190243,4.239889272975951,1.354550584967199,0.0,0.0,52.902719007487946,8.0,5300.0,3.0,177.0,0.0,0.0,0.0,0.0
66135100.0,-81.74221833333333,28.75262,23.6,15.9992222084,9.081644058227539,3.955148935317993,10.682957649230957,1678645334596.0,4382.0,27.0,9.0,1.0399999618530273,0.0,0.0,0.0,0.0,0.0,0.0,0.0,0.0,0.0,0.0,0.0,2.0,0.0,43.0,0.0,0.0,0.0,0.0,0.0,0.0,1.0,55.0,802854.3976867266,-5531859.549124653,31.9,34.444877353613265,33.47713320609182,3.9644104125909507,16.308612283319235,4.886491327230973,-0.8060038212751323,1.6797191560536398,54.285685092003334,16.797191560536398,0.7979693521363966,71.47500681423085,-0.17852851130429456,2.0,0.0,2.0,0.0,71.47500681423085,802892.0371072716,-5531868.888128961,14.835861766716675,9.905526836109557,0.0,5400.0,142.4757817471209,-49.90778532916658,0.8278946346716157,0.0,55.0,100.0,3.702399275841707,0.5409182175106737,3.7417045468326493,5.3792447823858325,3.4142307178073192,0.0,0.0,54.602453426856194,8.0,5400.0,3.0,277.0,0.0,0.0,0.0,0.0
66135200.0,-81.74221333333334,28.752635,23.5,16.22557776376,8.119821548461914,1.4094066619873047,9.486083984375,1678645334631.0,4382.0,27.0,9.0,1.0399999618530273,0.0,0.0,0.0,0.0,0.0,0.0,0.0,0.0,0.0,0.0,0.0,2.0,0.0,43.0,0.0,0.0,0.0,0.0,0.0,0.0,1.0,56.0,802854.8801665461,-5531857.94435446,31.799999999999997,34.90630872931797,35.08575541712344,4.614313757047057,16.086222110316157,5.6632309942437775,-1.3815477167704637,1.6757309304021282,55.96141602240546,16.75730930402128,0.5317315402612799,60.237951062326566,-0.11237055751904286,2.0,0.0,2.0,0.0,60.237951062326566,802890.4203917971,-5531868.424376042,17.22512792404234,8.241233470647499,0.0,5500.0,134.98331085211248,-52.50582633771722,0.8304881027495367,0.0,56.0,100.0,4.479153476635643,0.2892885849108707,4.488485685909771,3.640668071826271,1.1201180770764338,0.0,0.0,56.29819962057294,8.0,5500.0,3.0,377.0,0.0,0.0,0.0,0.0
66135300.0,-81.74220833333334,28.752648333333333,23.5,16.256444430400002,8.322793006896973,1.8200318813323975,9.852716445922852,1678645334801.0,4503.0,22.0,8.0,1.440000057220459,0.0,0.0,0.0,0.0,0.0,0.0,0.0,0.0,0.0,0.0,0.0,2.0,0.0,43.0,0.0,0.0,0.0,0.0,0.0,0.0,1.0,57.0,802855.4276367004,-5531856.369236289,31.799999999999997,35.43273043993395,36.66472560539842,5.2642171061597764,15.789701882749796,6.231763633219242,-1.914925473014848,1.6675493464024795,57.62896536880794,16.675493464024797,0.41904903362479473,53.228038828018086,-0.0700991223430848,2.0,0.0,2.0,0.0,53.228038828018086,802888.32862919,-5531867.726991589,19.723266797054748,8.51947178437252,-50.0,5600.0,127.37157175353605,-52.99516145817577,0.830994715943668,0.0,57.0,100.0,5.164301647864329,0.09800931747611755,5.1652315859452385,3.1584913590326433,1.7220225638562798,0.0,0.0,57.98576423029003,8.0,5600.0,3.0,477.0,0.0,0.0,0.0,0.0
66135400.0,-81.74220166666667,28.75266166666667,23.4,16.44164443024,8.840846061706543,1.9877097606658936,8.664321899414062,1678645334836.0,4503.0,22.0,8.0,1.440000057220459,0.0,0.0,0.0,0.0,0.0,0.0,0.0,0.0,0.0,0.0,0.0,2.0,0.0,43.0,0.0,0.0,0.0,0.0,0.0,0.0,1.0,58.0,802856.0465962229,-5531854.816357132,31.699999999999996,36.03064151853323,38.221456779167056,5.979110785992816,15.567311737686396,6.658375574357752,-2.5314238734711387,1.6716891353572083,59.300654504165145,16.716891353572084,0.2752469233320838,48.895935075513606,-0.0433210375250448,2.0,0.0,2.0,0.0,48.895935075513606,802888.6331647699,-5531867.843957949,22.287194344934505,9.061542317919095,0.0,5700.0,120.23842319838604,-51.32156819792669,0.8336754197819595,0.0,58.0,100.0,5.752299592371058,-0.10517077810987487,5.753260944278512,3.088546469335485,1.8825389825560186,0.0,0.0,59.677468628961854,8.0,5700.0,3.0,577.0,0.0,0.0,0.0,0.0
66135500.0,-81.742195,28.752676666666666,23.4,16.462222208,10.372910499572754,0.312894344329834,8.269444465637207,1678645334934.0,4503.0,22.0,9.0,0.9100000262260437,0.0,0.0,0.0,0.0,0.0,0.0,0.0,0.0,0.0,0.0,0.0,2.0,0.0,43.0,0.0,0.0,0.0,0.0,0.0,0.0,1.0,59.0,802856.7370451135,-5531853.285716994,31.699999999999996,36.700041965348646,39.75594893377274,6.694004468154162,15.344921546056867,7.072240141730808,-3.1215078474776585,1.679160178031324,60.97981468219647,16.79160178031324,0.3293795723132398,45.42418726309831,-0.03471747812415295,2.0,0.0,2.0,0.0,45.42418726309831,802886.1879053346,-5531866.7772482,24.948233129782466,10.377628587633124,0.0,5800.0,114.3793596819487,-48.12051463347051,0.8477147092519103,0.0,59.0,100.0,6.252973931231459,-0.1709868273281815,6.255311301588432,4.119936568341295,0.1419075170016525,0.0,0.0,61.37664407030779,8.0,5800.0,3.0,677.0,0.0,0.0,0.0,0.0
66135600.0,-81.74218666666667,28.75269,23.4,16.590833319,11.510120391845703,2.7395472526550293,9.347505569458008,1678645335054.0,4612.0,12.0,9.0,0.9100000262260437,0.0,0.0,0.0,0.0,0.0,0.0,0.0,0.0,0.0,0.0,0.0,2.0,0.0,43.0,0.0,0.0,0.0,0.0,0.0,0.0,1.0,60.0,802857.498983372,-5531851.792141883,31.699999999999996,37.440931780147366,41.25337606202811,7.408898147987202,14.974271282553673,7.518185589109507,-3.5111813676604733,1.6766981010663926,62.65651278326286,16.766981010663926,0.17614769166392463,42.148012135901716,-0.03276175127196595,2.0,0.0,2.0,0.0,42.148012135901716,802888.434140203,-5531867.888629532,27.60932454505422,11.831652064877161,-100.0,5900.0,110.50125466420104,-44.53303372940769,0.8842764734630695,0.0,60.0,100.0,6.671672334051002,0.028268690721415565,6.671732222730214,4.838448057794701,2.711278561933614,0.0,0.0,63.0733574346888,8.0,5900.0,3.0,777.0,0.0,0.0,0.0,0.0
66135700.0,-81.74218,28.752703333333333,23.3,16.75545554108,11.098382949829102,-0.9877231121063232,8.532405853271484,1678645335171.0,4612.0,12.0,9.0,0.9100000262260437,0.0,0.0,0.0,0.0,0.0,0.0,0.0,0.0,0.0,0.0,0.0,2.0,0.0,43.0,0.0,0.0,0.0,0.0,0.0,0.0,1.0,61.0,802858.3259119653,-5531850.335631801,31.599999999999998,38.24681192962453,42.71373816113919,8.058801494771615,14.603620991110802,7.768883838572661,-3.872017104430756,1.6748828368318078,64.33139562009467,16.74882836831808,-0.006627172761920264,40.17840272253782,-0.01969609413363898,2.0,0.0,2.0,0.0,40.17840272253782,802884.242145594,-5531865.575336656,30.362615365519332,11.14224847359124,0.0,6000.0,107.53672629124321,-39.84131749166508,0.952233045470719,0.0,61.0,100.0,7.008185596457027,0.20799343975817958,7.011271398638779,4.090197353372075,0.7797296723481437,0.0,0.0,64.76825553483522,8.0,6000.0,3.0,877.0,0.0,0.0,0.0,0.0
66135800.0,-81.74217,28.752716666666668,23.3,16.71944443,11.734838485717773,3.005661964416504,9.373344421386719,1678645335276.0,4612.0,12.0,9.0,0.9100000262260437,0.0,0.0,0.0,0.0,0.0,0.0,0.0,0.0,0.0,0.0,0.0,2.0,0.0,43.0,0.0,0.0,0.0,0.0,0.0,0.0,1.0,62.0,802859.2308289603,-5531848.916186747,31.599999999999998,39.13068048085552,44.137035232037306,8.838685512309894,14.232970708981156,8.051662966835059,-4.177358292193001,1.6833594471145537,66.01475506720922,16.83359447114554,0.11415004114553895,38.888285068676424,-0.012901176538613938,2.0,0.0,2.0,0.0,38.888285068676424,802883.6031886068,-5531865.1785438815,33.35302984302933,12.113646772554626,0.0,6100.0,105.47742200778703,-35.28556249197496,1.0532256749661018,0.0,62.0,100.0,7.2609948855227895,0.5639694962172382,7.282864019069121,4.473843600194984,2.4416924681992658,0.0,0.0,66.4716302452644,8.0,6100.0,3.0,977.0,0.0,0.0,0.0,0.0
66135900.0,-81.74216,28.752728333333334,23.3,16.59597776344,10.285603523254395,2.787661552429199,7.667529582977295,1678645335374.0,4612.0,34.0,9.0,0.9100000262260437,0.0,0.0,0.0,0.0,0.0,0.0,0.0,0.0,0.0,0.0,0.0,2.0,0.0,43.0,0.0,0.0,0.0,0.0,0.0,0.0,1.0,63.0,802860.2072353231,-5531847.548632732,31.599999999999998,40.086038399953395,45.50844126474112,9.55357919097878,13.714060327038169,8.16808893524848,-4.377526419688456,1.680349181166817,67.69510424837604,16.80349181166817,0.20751404822816966,38.01846127129267,-0.008698237973837522,2.0,0.0,2.0,0.0,38.01846127129267,802882.1316362905,-5531864.153421397,36.46154416550144,10.65667381355342,220.0,6200.0,104.2977343231305,-30.552037310198514,1.1850347855282701,0.0,63.0,100.0,7.433042797701322,0.9578054726056613,7.49449908638415,2.8525607255530723,1.829856079823538,0.0,0.0,68.17199468974583,8.0,6200.0,3.0,1077.0,0.0,0.0,0.0,0.0
66136000.0,-81.74215,28.75274,23.3,16.80689998548,10.68365478515625,5.3580217361450195,9.156343460083008,1678645335484.0,4612.0,34.0,9.0,0.9100000262260437,0.0,0.0,0.0,0.0,0.0,0.0,0.0,0.0,0.0,0.0,0.0,2.0,0.0,43.0,0.0,0.0,0.0,0.0,0.0,0.0,1.0,64.0,802861.2616300875,-5531846.232969755,31.599999999999998,41.11938472057227,46.82795625831932,10.333463206188753,13.195149935781956,8.208880511653831,-4.5844798707916254,1.6860359979726056,69.38114024634865,16.860359979726056,0.05345999424605452,37.88683104209466,-0.0013163022919800938,2.0,0.0,0.0,2.0,37.88683104209466,802882.5081470277,-5531864.448276693,39.64407212645523,11.951940281535652,0.0,6300.0,103.20219807632111,-25.731718364113384,1.3400374706177565,0.0,64.0,100.0,7.513285852620534,1.3226587231334015,7.628819725296223,3.170368932535716,4.035363013011618,0.0,0.0,69.87804595103306,8.0,6300.0,3.0,1177.0,0.0,0.0,0.0,0.0
66136100.0,-81.74213833333333,28.75275166666667,23.2,16.71944443,11.530538558959961,1.7618434429168701,10.164573669433594,1678645335583.0,4612.0,34.0,9.0,0.9100000262260437,0.0,0.0,0.0,0.0,0.0,0.0,0.0,0.0,0.0,0.0,0.0,2.0,0.0,43.0,0.0,0.0,0.0,0.0,0.0,0.0,1.0,65.0,802862.400512287,-5531844.961784813,31.499999999999996,42.237218476249836,48.10299321822822,11.17833755677566,12.750369599089026,8.119648931776798,-4.850562924020488,1.706740701725734,71.08788094807439,17.06740701725734,0.3479625872573422,38.76115986458882,0.008743288224941565,2.0,0.0,0.0,2.0,38.76115986458882,802883.4248444185,-5531865.251951645,42.77692783467535,11.664365039598668,0.0,6400.0,101.64475117301117,-21.376807311278,1.5101328562456784,0.0,65.0,100.0,7.497213655351799,1.5802816243448146,7.661951618630554,4.033324903608162,0.18156181857205556,0.0,0.0,71.6048019160734,8.0,6400.0,3.0,1277.0,0.0,0.0,0.0,0.0
66136200.0,-81.74212666666666,28.752763333333334,23.3,16.62684443008,10.897768020629883,3.219292640686035,9.580678939819336,1678645335637.0,4612.0,34.0,9.0,0.9100000262260437,0.0,0.0,0.0,0.0,0.0,0.0,0.0,0.0,0.0,0.0,0.0,2.0,0.0,43.0,0.0,0.0,0.0,0.0,0.0,0.0,1.0,66.0,802863.6238819213,-5531843.735077905,31.599999999999998,43.43953966675326,49.33355214353651,12.023211905034259,12.305589253082871,8.020007000314655,-5.078599473078507,1.7324673446659422,72.82034829274033,17.32467344665942,0.6978290165794228,40.022978718410336,0.012618188538215164,2.0,0.0,0.0,2.0,40.022978718410336,802883.1539827675,-5531864.9873054875,45.91197451650345,11.36332666686295,0.0,6500.0,100.24425093669288,-18.72556198705464,1.6963615606570246,0.0,66.0,100.0,7.377172024104336,1.874625317496311,7.6116284167204205,3.5205959965255467,1.3446673231897242,0.0,0.0,73.35728452405397,8.0,6500.0,3.0,1377.0,0.0,0.0,0.0,0.0
